,name,empty_slots,free_bikes,slots,latitude,longitude
0,"001023 - River Street , Clerkenwell",11,8,,51.52916347,-0.109970527
1,"001018 - Phillimore Gardens, Kensington",26,11,,51.49960695,-0.197574246
2,"001024 - Park Street, Bankside",6,12,,51.50597426,-0.092754157
3,"001022 - Brunswick Square, Bloomsbury",16,8,,51.52395143,-0.122502346
4,"000980 - Malet Street, Bloomsbury",28,21,,51.52168078,-0.130431727
5,"001011 - Belgrove Street , King's Cross",29,19,,51.52994371,-0.123616824
6,"001010 - Cartwright Gardens , Bloomsbury",4,17,,51.52635795,-0.125979294
7,"001007 - Drury Lane, Covent Garden",3,24,,51.51477076,-0.12221963
8,"001009 - Taviton Street, Bloomsbury",19,11,,51.52505093,-0.131161087
9,"000993 - Drummond Street , Euston",2,26,,51.527326,-0.13605286
10,"001019 - Ampton Street , Clerkenwell",17,4,,51.52728093,-0.11829517
11,"001025 - Bolsover Street, Fitzrovia",16,3,,51.52351808,-0.143613641
12,"001029 - Windsor Terrace, Hoxton",13,11,,51.52915444,-0.093421615
13,"003446 - De Vere Gardens, Kensington",19,9,,51.50173726,-0.184980612
14,"003445 - Shoreditch High Street, Shoreditch",40,1,,51.5263778,-0.078130921
15,"001084 - Pindar Street, Liverpool Street",0,24,,51.520955,-0.083493552
16,"001036 - Crawford Street, Marylebone",17,1,,51.52026,-0.157183945
17,"000971 - Godliman Street, St. Paul's",6,19,,51.51248445,-0.099141408
18,"001054 - East Road, Hoxton",19,8,,51.52867339,-0.087459376
19,"001026 - Roscoe Street, St. Luke's",18,0,,51.52295439,-0.094934859
20,"003431 - Grafton Street, Mayfair",10,8,,51.5099923,-0.143495266
21,"001033 - Paddington Street, Marylebone",15,1,,51.52058381,-0.154701411
22,"001030 - Lisson Grove, St. John's Wood",15,3,,51.52644828,-0.172190727
23,"000982 - Holborn Circus, Holborn",14,26,,51.51795029,-0.108657431
24,"000975 - Theobald's Road , Holborn",12,14,,51.52059681,-0.116688468
25,"001064 - Old Street Station, St. Luke's",17,12,,51.52548,-0.089659871
26,"000978 - Russell Square Station, Bloomsbury",14,12,,51.52341837,-0.124121774
27,"001038 - Harrington Square 1, Camden Town",16,11,,51.53301907,-0.139174593
28,"002586 - Cloudesley Road, Angel",35,2,,51.53440868,-0.109025404
29,"001065 - Aldersgate Street, Barbican",8,7,,51.5208417,-0.097340162
30,"001047 - Falkirk Street, Hoxton",6,20,,51.53095071,-0.078505384
31,"001045 - Jewry Street, Aldgate",7,10,,51.51340693,-0.076793375
32,"000991 - Crosswall, Tower",17,17,,51.51159481,-0.077121322
33,"001042 - Woodstock Street, Mayfair",13,8,,51.51410514,-0.147301667
34,"001049 - Finsbury Leisure Centre, St. Luke's",18,2,,51.52600832,-0.096317627
35,"001055 - Wellington Road, St. John's Wood",6,11,,51.53304322,-0.172528678
36,"001050 - Park Road (Baker Street), The Regent's Park",11,11,,51.52451738,-0.158963647
37,"000995 - Little Argyll Street, West End",14,7,,51.51449962,-0.141423695
38,"001043 - Museum of London, Barbican",9,43,,51.51782144,-0.096496865
39,"001116 - Emperor's Gate, South Kensington",12,10,,51.49536226,-0.185296516
40,"001039 - Wapping High Street, Wapping",10,10,,51.504904,-0.06797
41,"001053 - Clerkenwell Green, Clerkenwell",6,15,,51.52326004,-0.104708922
42,"001048 - Queen Victoria Street, St. Paul's",2,30,,51.51196176,-0.097441687
43,"003464 - Green Street, Mayfair",15,4,,51.51227622,-0.157436972
44,"001056 - Finsbury Square , Moorgate",6,27,,51.52096262,-0.085634242
45,"001093 - Kennington Cross, Kennington",23,24,,51.48894022,-0.111435796
46,"001115 - Ilchester Place, Kensington",20,4,,51.50074359,-0.202759212
47,"001046 - Vauxhall Bridge , Pimlico",33,2,,51.48836528,-0.129361842
48,"001118 - Hampton Street, Walworth",10,11,,51.49217002,-0.101536865
49,"001121 - Lexham Gardens, Kensington",9,10,,51.49586666,-0.191933711
50,"001113 - Trebovir Road, Earl's Court",14,4,,51.49085368,-0.196170309
51,"003478 - Guildhouse Street, Victoria",2,14,,51.49234577,-0.141334487
52,"001123 - Southampton Place, Holborn",3,17,,51.51760685,-0.121328408
53,"003461 - Sloane Avenue, Knightsbridge",13,14,,51.4931848,-0.167894973
54,"002585 - Orsett Terrace, Bayswater",14,1,,51.517932,-0.183716959
55,"003463 - Argyll Road, Kensington",14,5,,51.50040123,-0.195455928
56,"003477 - Porchester Place, Paddington",6,12,,51.5147461,-0.1651640000000043
57,"003459 - Collingham Gardens, Earl's Court",13,1,,51.4916156,-0.186753859
58,"001124 - Sumner Place, South Kensington",14,5,,51.49121192,-0.173715911
59,"003460 - Warwick Square, Pimlico",13,6,,51.48985626,-0.141923621
60,"001126 - North Audley Street, Mayfair",11,6,,51.5129118,-0.153645496
61,"003473 - Belgrave Square, Belgravia",17,4,,51.49941247,-0.152317537
62,"001167 - South Wharf Road, Paddington",11,5,,51.51733558,-0.175810943
63,"001112 - Nutford Place, Marylebone",16,2,,51.5165179,-0.164393768
64,"000960 - Hop Exchange, The Borough",3,53,,51.50462759,-0.091773776
65,"001080 - Great Tower Street, Monument",23,1,,51.51048489,-0.082989638
66,"001102 - Leman Street, Aldgate",15,22,,51.51236389,-0.06954201
67,"001040 - West Smithfield Rotunda, Farringdon",5,10,,51.51821864,-0.100791005
68,"003468 - Margery Street, Clerkenwell",15,4,,51.52659961,-0.112432615
69,"003476 - Hinde Street, Marylebone",11,10,,51.51681444,-0.151926305
70,"001079 - Endsleigh Gardens, Euston",7,25,,51.52683806,-0.130504336
71,"001092 - Moorfields, Moorgate",28,26,,51.51906932,-0.088285377
72,"003479 - Old Brompton Road, South Kensington",27,3,,51.49094565,-0.181190899
73,"002587 - Wormwood Street, Liverpool Street",2,14,,51.51615461,-0.082422399
74,"003486 - St. Luke's Church, Chelsea",11,9,,51.48971651,-0.170194408
75,"003481 - Rodney Road , Walworth",17,7,,51.49148474,-0.090220911
76,"001150 - Queensway, Kensington Gardens",15,2,,51.51031,-0.18740235
77,"003470 - Great Percy Street, Clerkenwell",16,7,,51.52891573,-0.115480888
78,"001144 - Poured Lines, Bankside",6,25,,51.50669284,-0.103137426
79,"001154 - Kennington Road  , Vauxhall",21,15,,51.49571828,-0.110889274
80,"003483 - Fashion Street, Whitechapel",22,8,,51.51838043,-0.073438925
81,"003467 - Dock Street, Wapping",7,23,,51.5097860151,-0.0681619805156
82,"001090 - Warren Street Station, Euston",21,5,,51.52443845,-0.138019439
83,"003482 - Beaumont Street, Marylebone",11,12,,51.52200801,-0.151359288
84,"001145 - Earnshaw Street , Covent Garden",15,3,,51.51611887,-0.128585022
85,"001140 - Grosvenor Road, Pimlico",18,11,,51.4853572,-0.142207481
86,"001159 - Berry Street, Clerkenwell",14,27,,51.52285301,-0.099994052
87,"001161 - Brushfield Street, Liverpool Street",2,32,,51.518908,-0.079249
88,"001051 - Shoreditch Park, Hoxton",27,3,,51.53404294,-0.086379717
89,"003471 - Chadwell Street, Angel",15,3,,51.53051587,-0.106408455
90,"003484 - Houghton Street, Strand",3,12,,51.51362054,-0.116764211
91,"003491 - Princes Square, Bayswater",15,1,,51.5134891,-0.191351186
92,"001146 - Tysoe Street, Clerkenwell",15,5,,51.52644342,-0.109256828
93,"003490 - Southwick Street, Paddington",5,12,,51.51595344,-0.169249375
94,"001155 - Regency Street, Westminster",19,3,,51.49206037,-0.132224622
95,"001209 - Empire Square, The Borough",16,30,,51.50082346,-0.089740764
96,"001190 - Kennington Lane Rail Bridge, Vauxhall",18,13,,51.4863434,-0.122492418
97,"001136 - London Zoo,  The Regent's Park",25,7,,51.53583617,-0.156285395
98,"001133 - Baylis Road, Waterloo",12,10,,51.50144456,-0.110699309
99,"001134 - Warwick Road, Olympia",22,14,,51.49671237,-0.20528437
100,"001108 - North Wharf Road, Paddington",20,5,,51.51862243,-0.176645823
101,"003462 - Royal Avenue 2, Chelsea",1,9,,51.490083,-0.162418
102,"001141 - Kingsway, Covent Garden",16,0,,51.51440928,-0.118478757
103,"001117 - Lambeth North Station, Waterloo",2,18,,51.49914063,-0.112031483
104,"001156 - Bedford Way, Bloomsbury",21,2,,51.52367314,-0.128377673
105,"001138 - Elizabeth Bridge, Victoria",8,26,,51.49236962,-0.147478734
106,"003496 - St Mary's Hospital, Paddington",17,3,,51.518268,-0.17110323
107,"001135 - Claverton Street, Pimlico",10,22,,51.48483991,-0.138089062
108,"001214 - Kensington Olympia Station, Olympia",19,6,,51.49815779,-0.209494128
109,"001216 - Swan Street, The Borough",14,13,,51.50029631,-0.092762704
110,"003498 - Geraldine Street, Elephant & Castle",14,3,,51.49612799,-0.106000855
111,"001152 - Marylebone Lane, Marylebone",3,21,,51.51475963,-0.148105415
112,"003492 - Putney Pier, Wandsworth",5,23,,51.466907,-0.216573
113,"001157 - Black Lion Gate, Kensington Gardens",16,8,,51.50990837,-0.187842717
114,"003494 - Foley Street, Fitzrovia",14,10,,51.51918144,-0.140485596
115,"001130 - Grove End Road, St. John's Wood",11,9,,51.53088935,-0.176770502
116,"003495 - Wells Street, Fitzrovia",23,15,,51.51734403,-0.138072691
117,"003485 - Tyers Gate, Bermondsey",4,32,,51.50088934,-0.083159352
118,"000968 - Warwick Row, Westminster",7,14,,51.497998,-0.14296064
119,"003500 - Baldwin Street, St. Luke's",21,0,,51.52702563,-0.088542771
120,"002637 - Bermondsey Street, Bermondsey",17,7,,51.49785559,-0.081608045
121,"003502 - Palissy Street, Shoreditch",10,16,,51.526293,-0.073955
122,"003501 - Clifton Street, Shoreditch",6,18,,51.523196,-0.083067
123,"001131 - Graham Street, Angel",13,13,,51.53266186,-0.099981142
124,"002641 - New North Road 2, Hoxton",10,12,,51.53114,-0.086016
125,"002636 - Prince Albert Road, The Regent's Park",22,2,,51.53589283,-0.160854428
126,"001211 - Bunhill Row, Moorgate",9,21,,51.52085887,-0.089887855
127,"001210 - Nevern Place, Earl's Court",7,13,,51.49334336,-0.194757949
128,"002633 - Palace Gardens Terrace, Notting Hill",32,5,,51.50860544,-0.193764092
129,"001127 - Risinghill Street, Angel",18,7,,51.5333196,-0.1117812
130,"001222 - Goswell Road (City Uni), Finsbury",15,2,,51.528246,-0.10102611
131,"001218 - Flood Street, Chelsea",6,27,,51.48802358,-0.166878535
132,"001226 - Macclesfield Rd, St Lukes",11,17,,51.529423,-0.097122
133,"001224 - Vauxhall Street, Vauxhall",6,13,,51.486965,-0.116625
134,"001229 - High Holborn , Covent Garden",11,9,,51.516226,-0.124826
135,"002680 - Harrowby Street, Marylebone",13,3,,51.5173721,-0.1642075
136,"002681 - Harriet Street, Knightsbridge",7,18,,51.50024195,-0.15934065
137,"002670 - Paddington Green, Paddington",18,2,,51.520205,-0.174593
138,"002639 - King Edward Walk, Waterloo",15,7,,51.49775,-0.10988
139,"002649 - Sardinia Street, Holborn",6,18,,51.515208,-0.117863
140,"002683 - Millbank Tower, Pimlico",17,7,,51.49188409,-0.125674815
141,"002678 - Farm Street, Mayfair",1,14,,51.50935171,-0.14744969
142,"001223 - Buxton Street 1, Shoreditch",23,18,,51.521776,-0.068856
143,"001227 - Devonshire Terrace, Bayswater",9,7,,51.51348,-0.17977
144,"001129 - Sun Street, Liverpool Street",6,18,,51.520009,-0.083935724
145,"010624 - Strata, Elephant & Castle",25,16,,51.493146,-0.099828
146,"022179 - Exhibition Road, Knightsbridge",20,0,,51.499917,-0.174554
147,"022171 - Red Lion Street, Holborn",22,14,,51.51824,-0.11655
148,"200056 - Vauxhall Walk, Vauxhall",18,9,,51.488124,-0.120903
149,"200053 - Killick Street, King's Cross",19,3,,51.5338,-0.118677
150,"200032 - Kennington Oval, Oval",9,24,,51.483145,-0.113134
151,"200039 - Sail Street, Vauxhall",11,13,,51.495656,-0.114605
152,"200035 - Walmer Road, Avondale",17,7,,51.510101,-0.211358
153,"200033 - Philpot Street, Whitechapel",27,3,,51.515256,-0.058641
154,"200047 - Bethnal Green Garden, Bethnal Green",14,10,,51.52568,-0.055312
155,"200042 - York Hall, Bethnal Green",8,19,,51.528936,-0.055894
156,"200054 - Jubilee Crescent, Cubitt Town",54,0,,51.493381,-0.007542
157,"200020 - Shadwell Station, Shadwell",33,2,,51.511088,-0.057159
158,"200021 - Hermitage Court, Wapping",7,9,,51.504719,-0.063531
159,"200046 - Napier Avenue, Millwall",2,18,,51.487679,-0.021582
160,"200016 - Castlehaven Road, Camden Town",8,21,,51.542138,-0.145393
161,"200014 - Gunmakers Lane, Old Ford",13,4,,51.535179,-0.03338
162,"200013 - Aston Street, Stepney",23,3,,51.516,-0.038775
163,"200152 - Pitfield Street North,Hoxton",19,9,,51.53558,-0.08249
164,"200158 - Whiston Road, Haggerston",13,8,,51.534464,-0.076341
165,"200168 - Southern Grove, Bow",9,8,,51.523538,-0.030556
166,"200150 - Cantrell Road, Bow",15,9,,51.521564,-0.022694
167,"200174 - Mostyn Grove, Bow",26,20,,51.530535,-0.025492
168,"200019 - Malmesbury Road, Bow",18,3,,51.529452,-0.027616
169,"200155 - Gascoyne Road, Victoria Park",0,20,,51.541515,-0.038557746
170,"200009 - Stebondale Street, Cubitt Town",13,16,,51.489096,-0.009205
171,"200018 - Spindrift Avenue, Millwall",29,7,,51.49109,-0.018716
172,"200012 - Stepney Green Station, Stepney",15,6,,51.521889,-0.04667
173,"200156 - Pott Street, Bethnal Green",14,6,,51.527152,-0.058005
174,"200022 - Saunders Ness Road, Cubitt Town",5,30,,51.487129,-0.0090011
175,"200249 - Queen Mary's, Mile End",36,9,,51.522507,-0.041378
176,"200230 - Maplin Street, Mile End",28,11,,51.525501,-0.032267204
177,"200233 - South Quay East, Canary Wharf",3,33,,51.50196,-0.016251
178,"200252 - Bow Church Station, Bow",30,9,,51.528169,-0.018703
179,"200255 - Devons Road, Bow",18,21,,51.52512,-0.015578
180,"200242 - Merchant Street, Bow",10,17,,51.526578,-0.027581
181,"200251 - Bow Road Station, Bow",27,15,,51.527058,-0.025296
182,"200011 - Furze Green, Bow",31,5,,51.519265,-0.021345
183,"200148 - Ansell House, Stepney",40,1,,51.520019,-0.05438
184,"200241 - Bonner Gate, Victoria Park",18,3,,51.53341,-0.049591815
185,"200250 - Cleveland Way, Stepney",34,2,,51.520893,-0.051394
186,"200243 - St. John's Park, Cubitt Town",26,4,,51.496454,-0.009506
187,"200038 - Ackroyd Drive, Bow",28,1,,51.520398,-0.026768
188,"200036 - Bell Lane, Liverpool Street",1,22,,51.517475,-0.075855
189,"200157 - Fournier Street, Whitechapel",2,16,,51.519362,-0.074431
190,"200253 - Fore Street, Guildhall",8,11,,51.517842,-0.090075
191,"200238 - Westferry DLR, Limehouse",11,30,,51.509303,-0.025996
192,"200256 - Sutton Street, Shadwell",28,5,,51.511066,-0.053558
193,"200162 - Watney Market, Stepney",31,20,,51.5142228,-0.055656
194,"200027 - Ford Road, Old Ford",8,10,,51.532513,-0.033085
195,"200041 - Antill Road, Mile End",28,2,,51.528224,-0.037471
196,"200254 - Teviot Street, Poplar",14,19,,51.518811,-0.011662
197,"200234 - Bancroft Road, Bethnal Green",18,3,,51.526041,-0.047218
198,"200161 - Clinton Road, Mile End",4,32,,51.525941,-0.036017
199,"200160 - Langdon Park, Poplar",4,20,,51.51549,-0.013475
200,"200017 - Lancaster Gate , Bayswater",23,15,,51.511654,-0.179668
201,"200153 - Blythe Road, Olympia",21,3,,51.496927,-0.21350087
202,"200143 - Lancaster Drive, Blackwall",18,9,,51.503143,-0.008428
203,"200154 - Hansard Mews, Holland Park",3,17,,51.503802,-0.215808
204,"200010 - Manresa Road, Chelsea",8,10,,51.486892,-0.170983
205,"200146 - Newby Place, Poplar",4,14,,51.508896,-0.012413
206,"200167 - Twig Folly Bridge, Mile End",16,5,,51.530326,-0.042744
207,"200165 - Wellington Row, Bethnal Green",24,9,,51.528222,-0.069743
208,"200159 - Goldsmith's Row, Haggerston",23,4,,51.531864,-0.066035
209,"200145 - Gloucester Avenue, Camden Town",20,4,,51.537349,-0.147154
210,"200024 - Queensbridge Road, Haggerston",34,1,,51.53385,-0.06992
211,"200239 - Old Montague Street, Whitechapel",4,14,,51.51793,-0.067937
212,"200050 - Naval Row, Blackwall",10,11,,51.508981,-0.00699
213,"200147 - Salmon Lane, Limehouse",24,9,,51.514115,-0.033828
214,"200051 - Percival Street, Finsbury",7,15,,51.526153,-0.102208
215,"200149 - Watney Street, Shadwell",23,4,,51.511542,-0.056667
216,"200064 - Regent's Row , Haggerston",11,13,,51.535678,-0.062546
217,"200203 - King Edward Street, St Pauls",7,13,,51.51601,-0.0985
218,"200048 - Page Street, Westminster",14,10,,51.493978,-0.127554
219,"200037 - Rectory Square, Stepney",12,10,,51.518369,-0.043371
220,"200141 - Westfield Ariel Way, White City",2,40,,51.509158,-0.224103
221,"200248 - Pitfield Street Central, Hoxton",2,28,,51.53213,-0.08299
222,"200061 - Westfield Southern Terrace ,Shepherd's Bush",5,24,,51.506256,-0.218337
223,"200026 - Greenland Road, Camden Town",32,4,,51.539099,-0.141728
224,"200246 - Eagle Wharf Road, Hoxton",32,13,,51.53356,-0.09315
225,"200247 - Globe Town Market, Bethnal Green",17,3,,51.528869,-0.047548
226,"200244 - Hollybush Gardens, Bethnal Green",13,19,,51.527607,-0.057133
227,"200060 - Drayton Gardens, West Chelsea",9,9,,51.487196,-0.179369
228,"200236 - Greenberry Street, St.John's Wood",26,0,,51.53256,-0.16862
229,"200058 - Northdown Street, King's Cross",15,6,,51.531066,-0.11934
230,"200226 - Kingsway Southbound, Strand",15,18,,51.513875,-0.117774
231,"200142 - Hammersmith Road, Hammersmith",15,7,,51.493267,-0.21985
232,"200237 - Parson's Green , Parson's Green",19,2,,51.472817,-0.199783
233,"200229 - Fulham Park Road, Fulham",14,13,,51.473471,-0.20782
234,"200235 - Manbre Road, Hammersmith",22,6,,51.485743,-0.223616
235,"200136 - BBC White City, White City",19,17,,51.514767,-0.225787
236,"200211 - Union Grove, Wandsworth Road",22,23,,51.472993,-0.133972
237,"200137 - Caldwell Street, Stockwell",34,10,,51.477839,-0.116493
238,"200198 - Seymour Place, Marylebone",23,6,,51.520331,-0.163667
239,"200218 - Addison Road, Holland Park",15,11,,51.504199,-0.210941
240,"200224 - Colet Gardens, Hammersmith",6,24,,51.491093,-0.216493
241,"200208 - Sugden Road, Clapham",16,3,,51.46512358,-0.157788279
242,"200222 - Danvers Street, West Chelsea",15,6,,51.48256792,-0.172078187
243,"200067 - Princedale Road , Holland Park",6,14,,51.50646524,-0.208486599
244,"200175 - Wandsworth Rd, Isley Court, Wandsworth Road",24,6,,51.46925984,-0.141812513
245,"200214 - Woodstock Grove, Shepherd's Bush",2,22,,51.50403821,-0.217400093
246,"200098 - Aintree Street, Fulham",21,3,,51.48102131,-0.209973497
247,"200028 - Elysium Place, Fulham",17,4,,51.47107905,-0.207842908
248,"300003 - Eel Brook Common, Walham Green",2,22,,51.47625965,-0.193254007
249,"300012 - Irene Road, Parsons Green",33,10,,51.4737636,-0.197010096
250,"300010 - Surrey Lane, Battersea",19,9,,51.47518024,-0.167160736
251,"200091 - Wandsworth Town Station, Wandsworth",9,24,,51.46086446,-0.187427294
252,"200172 - Lansdowne Road, Ladbroke Grove",0,29,,51.50748124,-0.205535908
253,"200186 - Nantes Close, Wandsworth",11,11,,51.46193072,-0.180791784
254,"200173 - Courland Grove, Wandsworth Road",20,20,,51.4729184,-0.132102704
255,"200190 - Queen's Circus, Battersea Park",17,11,,51.47761941,-0.149551631
256,"300008 - Normand Park, West Kensington",17,7,,51.48438657,-0.20481514
257,"200187 - Morie Street, Wandsworth",2,26,,51.45995384,-0.190184054
258,"200194 - Clarence Walk, Stockwell",17,11,,51.47073264,-0.126994068
259,"200183 - Battersea Park Road, Nine Elms",4,23,,51.4795017,-0.141770709
260,"200176 - Sheepcote Lane, Battersea",5,23,,51.47053858,-0.163041605
261,"200116 - Vereker Road, West Kensington",1,31,,51.48959104,-0.209378594
262,"300002 - Brook Green South, Brook Green",18,15,,51.49434708,-0.215804559
263,"200215 - Greyhound Road, Hammersmith",34,3,,51.48606206,-0.214428378
264,"200180 - South Park, Sands End",25,3,,51.46706414,-0.193502076
265,"200191 - Spencer Park, Wandsworth Common",16,9,,51.45787019,-0.174691623
266,"200179 - Silverthorne Road, Battersea",25,3,,51.47286577,-0.148059277
267,"300025 - Archbishop's Park, Waterloo",6,17,,51.49824168,-0.117495865
268,"200192 - Fawcett Close, Battersea",11,25,,51.46916161,-0.174485792
269,"200182 - Rainville Road, Hammersmith",31,5,,51.48373225,-0.223852256
270,"200181 - Richmond Way, Shepherd's Bush",22,5,,51.50035306,-0.217515071
271,"200171 - Peterborough Road, Sands End",17,13,,51.46904022,-0.19627483
272,"300009 - World's End Place, West Chelsea",21,1,,51.48180515,-0.18027465
273,"300030 - Thorndike Close, West Chelsea",19,6,,51.48089844,-0.183853573
274,"300022 - Evesham Street, Avondale",3,26,,51.51148696,-0.218190203
275,"200196 - Simpson Street, Clapham Junction",7,18,,51.47084722,-0.17070367
276,"200221 - Crabtree Lane, Fulham",15,12,,51.48294452,-0.219346128
277,"200220 - Blythe Road West, Shepherd's Bush",21,0,,51.49968,-0.221791551
278,"300005 - Ethelburga Estate, Battersea Park",26,4,,51.47729232,-0.16478637
279,"200212 - Blackfriars Station, St. Paul's",9,26,,51.511934,-0.10307894
280,"200124 - Clarendon Road, Avondale",10,14,,51.51323001,-0.211593602
281,"300013 - Austin Road, Battersea Park",20,4,,51.474376,-0.155442787
282,"200113 - Smugglers Way, Wandsworth",8,14,,51.46108367,-0.191722864
283,"200209 - Shepherd's Bush Road North, Shepherd's Bush",34,0,,51.5015946,-0.222293381
284,"300037 - Ravenscourt Park Station, Hammersmith",11,15,,51.49422354,-0.236769936
285,"300036 - Teversham Lane, Stockwell",9,30,,51.47614939,-0.1232585
286,"200169 - Ashley Crescent, Battersea",9,19,,51.46718562,-0.152248582
287,"300052 - Parsons Green Station, Parsons Green",13,43,,51.475089,-0.201968
288,"300051 - Hibbert Street, Battersea",20,16,,51.46517078,-0.18038939
289,"300035 - Carnegie Street, King's Cross",22,18,,51.53546778,-0.11619105
290,"200126 - Usk Road, Clapham Junction",27,3,,51.46348914,-0.182126248
291,"200207 - Hartington Road, Stockwell",14,21,,51.47787084,-0.126874471
292,"200023 - Heath Road, Battersea",21,6,,51.46866929,-0.146544642
293,"200170 - Esmond Street, Putney",8,22,,51.46231278,-0.211468596
294,"200114 - Orbel Street, Battersea",17,9,,51.47453545,-0.170210533
295,"200210 - Westbridge Road, Battersea",7,21,,51.47768469,-0.170329317
296,"200043 - Bishop's Avenue, Fulham",16,30,,51.47303687,-0.214749808
297,"200188 - Neville Gill Close, Wandsworth",3,29,,51.45475251,-0.195197203
298,"200219 - Osiers Road, Wandsworth",26,4,,51.46067005,-0.198735357
299,"200097 - Beryl Road, Hammersmith",4,22,,51.48814438,-0.222456468
300,"200204 - Northfields, Wandsworth",20,8,,51.46095151,-0.20066766
301,"200199 - Stanley Grove, Battersea",21,3,,51.47047503,-0.152130083
302,"200184 - Erin Close, Walham Green",1,23,,51.47946386,-0.195777222
303,"200112 - Cadogan Close, Victoria Park",13,9,,51.54211855,-0.028941601
304,"300019 - Felsham Road, Putney",16,2,,51.464786,-0.215618902
305,"300033 - Putney Rail Station, Putney",11,9,,51.46071722,-0.216526155
306,"300031 - Islington Green, Angel",17,4,,51.53638435,-0.102757578
307,"300018 - Charing Cross Hospital, Hammersmith",21,0,,51.48728535,-0.217995921
308,"200121 - Shoreditch Court, Haggerston",34,1,,51.53908372,-0.070329419
309,"200201 - Battersea Church Road, Battersea",20,5,,51.47696496,-0.174347066
310,"200213 - Durant Street, Bethnal Green",6,18,,51.52868155,-0.065550321
311,"200063 - Mexfield Road, East Putney",11,7,,51.45682071,-0.202802098
312,"200193 - Snowsfields, London Bridge",0,31,,51.50215353,-0.083632928
313,"200197 - Barons Court Station, West Kensington",1,31,,51.49021762,-0.215087092
314,"300045 - Albert Bridge Road, Battersea Park",16,4,,51.47439218,-0.163347594
315,"300028 - Everington Street, Fulham",18,13,,51.48335692,-0.216305546
316,"300056 - Mile End Stadium, Mile End",14,8,,51.51854104,-0.034903714
317,"300055 - Stewart's Road, Wandsworth Road",5,23,,51.47311696,-0.137235175
318,"300049 - Aylward Street, Stepney",9,13,,51.51563007,-0.049067243
319,"300024 - Dunston Road , Haggerston",38,5,,51.53658514,-0.075885686
320,"300040 - Ada Street, Hackney Central",42,3,,51.53571683,-0.060291813
321,"300011 - Victoria Park Road, Hackney Central",33,1,,51.53642464,-0.054162264
322,"300038 - Star Road, West Kensington",14,9,,51.48724429,-0.205279052
323,"300039 - Wendon Street, Old Ford",6,12,,51.53603947,-0.026262677
324,"300041 - Finnis Street, Bethnal Green",8,11,,51.52458353,-0.058631453
325,"300053 - Stephendale Road, Sands End",37,11,,51.46822047,-0.190346493
326,"300046 - Alma Road, Wandsworth",25,3,,51.45799126,-0.184806157
327,"300050 - Walworth Square, Walworth",10,14,,51.491327,-0.096518684
328,"300047 - Alfreda Street, Battersea Park",4,18,,51.47505096,-0.150908371
329,"300044 - Putney Bridge Road, East Putney",26,3,,51.46199911,-0.206240805
330,"300043 - St. Peter's Terrace, Fulham",10,14,,51.47893931,-0.208485293
331,"300082 - Bridge Avenue, Hammersmith",7,11,,51.49208492,-0.229116862
332,"300083 - Duke Street Hill, London Bridge",0,21,,51.50630441,-0.087262995
333,"200120 - Grant Road East, Clapham Junction",2,26,,51.46489445,-0.17302926
334,"300088 - Queensdale Road, Shepherd's Bush",10,18,,51.50659035,-0.216104479
335,"300086 - Fulham Broadway, Walham Green",6,20,,51.47993289,-0.19411695
336,"300087 - Imperial Road, Sands End",35,2,,51.47514228,-0.187278987
337,"300091 - Hortensia Road, West Brompton",27,1,,51.48176572,-0.185273723
338,"300084 - Sirdar Road, Avondale",7,19,,51.51092871,-0.214594781
339,"300085 - Freston Road, Avondale",4,19,,51.5129814,-0.219486603
340,"300078 - Oxford Road, Putney",17,12,,51.46079243,-0.212607684
341,"300077 - Ingrave Street, Clapham Junction",20,10,,51.46745485,-0.172293499
342,"300075 - Upcerne Road, West Chelsea",29,0,,51.47816972,-0.18243547
343,"300076 - Lots Road, West Chelsea",24,0,,51.4795738,-0.17903854
344,"300089 - Ormonde Gate, Chelsea",21,3,,51.48796408,-0.161765173
345,"300092 - Hertford Road, De Beauvoir Town",14,11,,51.53727795,-0.079201849
346,"300081 - Haggerston Road, Haggerston",35,2,,51.53932857,-0.074284675
347,"300080 - Culvert Road, Battersea",9,18,,51.4710956,-0.157850096
348,"300074 - Newton Street, Covent Garden",5,19,,51.51612862,-0.120909408
349,"300079 - London Street, Paddington",4,15,,51.515117,-0.17371276
350,"300067 - Grenfell Road, Avondale",11,13,,51.5129006,-0.214762686
351,"300058 - The Vale, Chelsea",16,8,,51.48512191,-0.174971902
352,"300073 - Prince of Wales Drive, Battersea Park",9,12,,51.47515398,-0.159169801
353,"300069 - Harcourt Terrace, West Brompton",17,7,,51.48795853,-0.187404506
354,"300072 - Broadley Terrace, Marylebone",15,3,,51.52456169,-0.165668686
355,"300068 - Humbolt Road, Fulham",18,8,,51.48321729,-0.211860644
356,"300027 - Mile End Park Leisure Centre, Mile End",43,4,,51.52059714,-0.032566533
357,"300064 - Ranelagh Gardens, Fulham",17,22,,51.46760141,-0.20682737
358,"200079 - Ram Street, Wandsworth",13,12,,51.45752945,-0.192165613
359,"200177 - Santos Road, Wandsworth",12,18,,51.45705988,-0.200806304
360,"300001 - Sandilands Road, Walham Green",2,19,,51.473611,-0.191803
361,"300097 - Gwendwr Road, West Kensington",16,14,,51.491026,-0.209121
362,"300007 - Rifle Place, Avondale",16,5,,51.509224,-0.216016
363,"300015 - Binfield Road, Stockwell",4,31,,51.47250956,-0.122831913
364,"300098 - Hurlingham Park, Parsons Green",13,7,,51.470131,-0.20464
365,"300101 - Little Brook Green, Brook Green",24,9,,51.496664,-0.223868
366,"300100 - Limburg Road, Clapham Junction",6,15,,51.4619230679,-0.165297856693
367,"300070 - Imperial Wharf Station, Sands End",15,10,,51.474665,-0.18316517
368,"300032 - Victoria & Albert Museum, South Kensington",27,3,,51.495898,-0.173009
369,"300210 - Halford Road, West Kensington",10,14,,51.483911,-0.19760944
370,"300213 - Monier Road, Hackney Wick",20,7,,51.5403115,-0.021630359
371,"300200 - East Village, Queen Elizabeth Olympic Park",28,6,,51.546326,-0.00993526
372,"300227 - Timber Lodge, Queen Elizabeth Olympic Park",34,1,,51.546805,-0.01469126
373,"300226 - Copper Box Arena, Queen Elizabeth Olympic Park",5,26,,51.544909,-0.0205426
374,"300234 - Stratford Station, Stratford",1,27,,51.541793,-0.00481
375,"300205 - Cromer Street, Bloomsbury",22,6,,51.528279,-0.11955857
376,"300204 - Victoria Rise, Clapham Common",23,0,,51.461376,-0.14780467
377,"300201 - Coram Street, Bloomsbury",26,3,,51.524,-0.12640984
378,"300211 - Ossulston Street, Somers Town",13,17,,51.5293,-0.12827903
379,"300212 - Birkenhead Street, King's Cross",13,14,,51.5301998755,-0.122299440803
380,"300202 - Kings Gate House, Westminster",10,14,,51.4976984561,-0.137598896295
381,"300248 - Sopwith Way, Battersea Park",19,11,,51.4811219398,-0.149035374873
382,"300208 - Lavington Street, Bankside",15,14,,51.5052241745,-0.0980318118664
383,"300209 - Albert Square, Stockwell",11,21,,51.4765900593,-0.118256789081
384,"300238 - Southwark Street, Bankside",6,17,,51.5054099403,-0.0983410884509
385,"300243 - Good's Way, King's Cross",12,15,,51.5346677396,-0.125078652873
386,"300244 - The Metropolitan, Portobello",15,3,,51.520509,-0.20080483
387,"300241 - Handyside Street, King's Cross",18,9,,51.5372405623,-0.124807385707
388,"300236 - Bevington Road West, North Kensington",18,6,,51.5212,-0.208888173
389,"300207 - Gauden Road, Clapham",24,4,,51.464995,-0.13090885
390,"300240 - Lincoln's Inn Fields, Holborn",14,14,,51.5162778834,-0.118272991635
391,"300237 - Tate Modern, Bankside",4,26,,51.5067252868,-0.0988072461627
392,"300228 - Westferry Circus, Canary Wharf",18,18,,51.5057030357,-0.0277727426235
393,"300217 - Here East North, Queen Elizabeth Olympic Park",26,2,,51.5487311915,-0.0226065549321
394,"300224 - New Spring Gardens Walk, Vauxhall",24,13,,51.4878074485,-0.122759625866
395,"300245 - Clapham Road, Lingham Street, Stockwell",11,19,,51.4714330677,-0.123670735702
396,"300219 - Here East South, Queen Elizabeth Olympic Park",12,16,,51.5465327935,-0.0205975904647
397,"300232 - Riverlight South, Nine Elms",24,2,,51.4813354746,-0.138212295869
398,"300239 - Victory Place, Walworth",15,9,,51.492807,-0.091938
399,"300221 - Battersea Power Station, Battersea Park",18,9,,51.4835074867,-0.147714557371
400,"300225 - Normandy Road, Stockwell",23,9,,51.473874,-0.11258096
401,"300230 - Wynne Road, Stockwell",12,13,,51.469217,-0.11268674
402,"300229 - Sidney Road, Stockwell",18,9,,51.469202,-0.11902256
403,"300215 - St John's Crescent, Brixton",8,17,,51.466232,-0.11317995
404,"200240 - Ferndale Road, Brixton",21,9,,51.464019,-0.11578197
405,"300206 - Saltoun Road, Brixton",36,6,,51.460232,-0.11537509
406,"300216 - Gas Holders, Battersea Park",16,10,,51.477966,-0.14785703
407,"300220 - Farringdon Street, Holborn",8,17,,51.516785,-0.10494775
408,"300235 - York Way, Kings Cross",18,6,,51.541596,-0.12544145
409,"300222 - Fore Street Avenue, Guildhall",4,6,,51.518093,-0.0914017
410,"200144 - Sea Containers, South Bank",9,21,,51.508033,-0.10682363
411,"002667 - Tower Wharf, Bermondsey",11,9,,51.500845,-0.074704305
412,"300252 - Canada Water Station, Rotherhithe",7,28,,51.498439,-0.049150215
413,"300029 - Lee Valley VeloPark, Queen Elizabeth Olympic Park",41,3,,51.549369,-0.015717614
414,"300060 - Brandon Street, Walworth",20,2,,51.489102,-0.0915489
415,"300063 - Burgess Park Albany Road, Walworth",14,16,,51.48224,-0.0942844
416,"200049 - St. Katharine's Way, Tower",8,16,,51.505697,-0.070542
417,"300023 - All Saints Church, Portobello",28,9,,51.51632095,-0.202608612
418,"200015 - Ladbroke Grove Central, Ladbroke Grove",11,10,,51.511624,-0.205921
419,"200065 - Lansdowne Walk, Ladbroke Grove",11,10,,51.509591,-0.204666
420,"300034 - St. Mark's Road, North Kensington",4,17,,51.51687069,-0.213872396
421,"001016 - Hereford Road, Bayswater",17,5,,51.513735,-0.193487
422,"001182 - Notting Hill Gate Station, Notting Hill",24,6,,51.50935342,-0.196422
423,"002682 - Turquoise Island, Notting Hill",21,0,,51.51431171,-0.200838199
424,"300026 - All Saints' Road, Portobello",8,14,,51.5190427,-0.204764421
425,"300090 - Blenheim Crescent, Ladbroke Grove",5,17,,51.51510818,-0.208565479
426,"001221 - St. George Street, Mayfair",18,0,,51.51196,-0.142783033
427,"001114 - Pont Street, Knightsbridge",8,16,,51.4968865,-0.161203828
428,"200045 - Garnet Street, Shadwell",12,12,,51.508447,-0.055167
429,"001230 - Millennium Hotel, Mayfair",14,13,,51.5109192966489,-0.1511263847351
430,"001013 - St. Chad's Street, King's Cross",14,9,,51.53005939,-0.120973687
431,"003420 - Sedding Street, Sloane Square",0,27,,51.49313,-0.156876
432,"003424 - Broadcasting House, Marylebone",15,3,,51.51811784,-0.144228881
433,"003422 - Charlbert Street, St. John's Wood",8,8,,51.53430039,-0.1680743
434,"003423 - Maida Vale, Maida Vale",20,19,,51.529857,-0.18348604
435,"000970 - Scala Street, Fitzrovia",11,10,,51.51991453,-0.136039674
436,"000988 - Great Russell Street, Bloomsbury",2,24,,51.51772703,-0.127854211
437,"003426 - Lansdowne Drive, Hackney Central",24,2,,51.539834,-0.062806212
438,"003425 - Northington Street , Holborn",16,3,,51.5222641,-0.114079481
439,"003421 - Red Lion Square, Holborn",7,9,,51.51943538,-0.119123345
440,"001004 - Doric Way , Somers Town",39,11,,51.5288338,-0.132250369
441,"003427 - Fanshaw Street, Hoxton",13,23,,51.52953709,-0.083353323
442,"003428 - Pancras Road, King's Cross",6,10,,51.5341235,-0.129386874
443,"003444 - Penywern Road, Earl's Court",11,6,,51.49159394,-0.192369256
444,"001083 - Commercial Street, Shoreditch",8,8,,51.52127071,-0.0755789
445,"000979 - Wenlock Road , Hoxton",9,19,,51.53099181,-0.093903825
446,"003437 - Curzon Street, Mayfair",3,13,,51.50706909,-0.145904427
447,"000986 - Finsbury Library , Finsbury",14,15,,51.52671796,-0.104298194
448,"000967 - Golden Lane, Barbican",7,20,,51.52174785,-0.094475072
449,"000974 - Guilford Street , Bloomsbury",25,7,,51.52334672,-0.120202614
450,"001017 - Great Dover Street, The Borough",10,23,,51.49738251,-0.089446947
451,"000990 - Cotton Garden Estate, Kennington",14,10,,51.4907579,-0.106323685
452,"000989 - Murray Grove , Hoxton",19,8,,51.53089041,-0.089782579
453,"000969 - Gower Place , Euston",17,0,,51.52522753,-0.13518856
454,"000985 - Hatton Garden, Holborn",8,20,,51.51882555,-0.108028472
455,"000983 - Euston Road, Euston",18,6,,51.5262363,-0.134407652
456,"001066 - Calshot Street , King's Cross",12,12,,51.53136059,-0.117069978
457,"003432 - Farringdon Lane, Clerkenwell",4,12,,51.52352001,-0.108340165
458,"001000 - Vauxhall Cross, Vauxhall",4,13,,51.48591714,-0.124469948
459,"000976 - Longford Street, The Regent's Park",14,7,,51.52559505,-0.144083893
460,"003433 - Sadlers Sports Centre, Finsbury",4,13,,51.52486887,-0.099489485
461,"003448 - Webber Street , Southwark",10,35,,51.50069361,-0.102091246
462,"003450 - Great Titchfield Street, Fitzrovia",10,9,,51.52025302,-0.141327271
463,"003452 - Panton Street, West End",14,7,,51.50963938,-0.131510949
464,"003449 - Breams Buildings, Holborn",19,6,,51.51593725,-0.111778348
465,"000994 - Tanner Street, Bermondsey",8,33,,51.50064702,-0.078600401
466,"003434 - Sancroft Street, Vauxhall",7,17,,51.48947903,-0.115156562
467,"001006 - Bayley Street , Bloomsbury",5,20,,51.51858757,-0.132053392
468,"003439 - Tavistock Place, Bloomsbury",10,9,,51.5262503,-0.123509611
469,"001076 - Walnut Tree Walk, Vauxhall",14,6,,51.49368637,-0.111014912
470,"001082 - Borough Road, Elephant & Castle",11,30,,51.49889832,-0.100440521
471,"001070 - Bricklayers Arms, Borough",12,16,,51.49506109,-0.085814489
472,"003447 - Gloucester Road (North), Kensington",8,10,,51.49792478,-0.183834706
473,"000972 - Hampstead Road, Euston",45,9,,51.52554222,-0.138231303
474,"001059 - Albert Embankment, Vauxhall",16,8,,51.49043573,-0.122806861
475,"003441 - Vicarage Gate, Kensington",5,13,,51.50472376,-0.192538767
476,"001061 - Stonecutter Street, Holborn",12,9,,51.51580998,-0.105270275
477,"003435 - Gloucester Road (Central), South Kensington",15,4,,51.49646288,-0.183289032
478,"001062 - Braham Street, Aldgate",12,22,,51.51423368,-0.073537654
479,"000998 - Lollard Street, Vauxhall",9,16,,51.49288067,-0.114934001
480,"000964 - Bath Street, St. Luke's",15,3,,51.52589324,-0.090847761
481,"001086 - Baker Street, Marylebone",20,2,,51.51891348,-0.156166631
482,"001068 - Norton Folgate, Liverpool Street",7,16,,51.52111369,-0.078869751
483,"000992 - St. John Street, Finsbury",5,13,,51.52836014,-0.104724625
484,"001069 - Eaton Square, Belgravia",5,15,,51.49654462,-0.150905245
485,"001063 - Wood Street, Guildhall",10,7,,51.51700801,-0.09388536
486,"001005 - Eversholt Street , Camden Town",7,9,,51.53300545,-0.136792671
487,"001078 - Lambeth Road, Vauxhall",11,7,,51.49488108,-0.117974901
488,"001003 - Chapel Place, Marylebone",18,11,,51.51530805,-0.147203711
489,"000965 - Tachbrook Street, Victoria",14,2,,51.49211134,-0.138364847
490,"001073 - Kennington Road Post Office, Oval",15,3,,51.48478899,-0.110683213
491,"001002 - Holy Trinity Brompton, Knightsbridge",27,1,,51.49705603,-0.168917077
492,"000966 - New Kent Road, The Borough",3,30,,51.49443626,-0.092921165
493,"001094 - Wright's Lane, Kensington",21,16,,51.50039792,-0.193068385
494,"001178 - Cleveland Gardens, Bayswater",14,2,,51.515607,-0.183118788
495,"001057 - Hardwick Street, Clerkenwell",24,6,,51.5278427,-0.1080682
496,"000997 - Worship Street, Shoreditch",3,48,,51.521668,-0.079608554
497,"001173 - Gloucester Terrace, Bayswater",21,2,,51.51791921,-0.188098863
498,"001166 - Bell Street , Marylebone",18,0,,51.52202903,-0.165842551
499,"001165 - Riverlight North, Nine Elms",18,6,,51.482362,-0.13612398
500,"001174 - Alderney Street, Pimlico",3,11,,51.48805753,-0.140741432
501,"001172 - Queen's Gate (South), South Kensington",25,0,,51.49247977,-0.178433004
502,"001104 - Claremont Square, Angel",14,4,,51.53166681,-0.109914711
503,"001106 - Rampayne Street, Pimlico",10,11,,51.48997562,-0.132845681
504,"000961 - Union Street, The Borough",8,9,,51.50368837,-0.098497684
505,"001171 - New Road 1 , Whitechapel",2,34,,51.518154,-0.062697
506,"001175 - Mallory Street, Marylebone",19,1,,51.52505151,-0.166304359
507,"003454 - Denyer Street, Knightsbridge",23,7,,51.49358391,-0.165101392
508,"003487 - Campden Hill Road, Notting Hill",16,1,,51.50658458,-0.199004026
509,"001170 - Horseferry Road, Westminster",6,10,,51.49481649,-0.13045856
510,"001081 - Liverpool Road (N1 Centre), Angel",24,0,,51.53450449,-0.106992706
511,"001099 - Frampton Street, Paddington",27,5,,51.5233534,-0.175116099
512,"001103 - Gloucester Street, Pimlico",12,13,,51.49096258,-0.139625122
513,"001091 - St. John's Wood Church, The Regent's Park",34,16,,51.530529,-0.167515
514,"003440 - Royal Avenue 1, Chelsea",0,10,,51.489932,-0.162727
515,"001194 - Westminster University, Marylebone",16,0,,51.52248185,-0.154907218
516,"001180 - Bourne Street, Belgravia",3,13,,51.490959,-0.1532331
517,"001095 - LSBU (Borough Road), Elephant & Castle",11,24,,51.49874469,-0.103132904
518,"001184 - St. Mary Axe, Aldgate",12,9,,51.51422502,-0.080660083
519,"001087 - Belgrave Road, Victoria",11,18,,51.49320445,-0.144132875
520,"001191 - Barbican Centre, Barbican",1,18,,51.52004497,-0.092176447
521,"001142 - Tooley Street, Bermondsey",3,24,,51.5034938,-0.07962099
522,"001187 - St. John's Wood Road, St. John's Wood",34,1,,51.5272947,-0.174653609
523,"001206 - Montpelier Street, Knightsbridge",10,6,,51.49888404,-0.165471605
524,"200069 - Knaresborough Place, Earl's Court",11,7,,51.49363156,-0.190603326
525,"001189 - Long Lane , Bermondsey",6,14,,51.49907558,-0.085666316
526,"001197 - Sackville Street, Mayfair",17,1,,51.51004801,-0.138846453
527,"001200 - Ontario Street, Elephant & Castle",1,14,,51.49652013,-0.101384068
528,"001158 - St. Martin's Street, West End",2,16,,51.50908747,-0.129697889
529,"001203 - Eastbourne Mews, Paddington",28,6,,51.51641749,-0.179135079
530,"001188 - London Zoo Car Park, The Regent's Park",27,9,,51.53692216,-0.150181444
531,"010627 - Grosvenor Square, Mayfair",8,9,,51.51217033,-0.150481272
532,"010623 - Greycoat Street , Westminster",6,11,,51.49459148,-0.134234258
533,"002694 - Clapham Common Station, Clapham Common",7,14,,51.461388,-0.13922146
534,"002685 - South Kensington Station, South Kensington",7,8,,51.494412,-0.173881
535,"002691 - Howland Street, Fitzrovia",25,5,,51.520994,-0.139016
536,"002686 - Royal College Street, Camden Town",48,9,,51.536264,-0.133952
537,"003507 - Store Street, Bloomsbury",25,7,,51.519572,-0.13214036
538,"002690 - City Road, Angel",17,30,,51.530344,-0.100168
539,"010632 - Kensington Town Hall, Kensington",3,15,,51.50194596,-0.194392952
540,"002669 - Charlotte Street, Fitzrovia",13,1,,51.51953043,-0.13577731
541,"002703 - Fire Brigade Pier, Vauxhall",2,28,,51.49369988,-0.121394101
542,"002699 - Snow Hill, Farringdon",9,6,,51.51733427,-0.103604248
543,"002698 - Aberdeen Place, St. John's Wood",18,0,,51.524826,-0.176268
544,"002695 - Cadogan Gardens, Chelsea",15,0,,51.492462,-0.159919
545,"002693 - Shouldham Street, Marylebone",14,2,,51.51809,-0.163609
546,"010631 - Holland Park, Kensington",21,9,,51.502319,-0.200742
547,"002687 - Brick Lane Market, Shoreditch",9,15,,51.52261762,-0.071653961
548,"002701 - Columbia Road, Shoreditch",18,6,,51.528187,-0.075375
549,"010625 - Penfold Street, Marylebone",11,4,,51.52289229,-0.171681991
550,"010630 - George Place Mews, Marylebone",14,2,,51.51689296,-0.158249929
551,"001107 - Gloucester Road Station, South Kensington",9,6,,51.49418566,-0.18267094
552,"001058 - Edgware Road Station, Marylebone",62,2,,51.519968,-0.169774
553,"010629 - Rotherhithe Roundabout, Rotherhithe",16,3,,51.499169,-0.055846029
554,"010628 - Cleaver Street, Kennington",15,2,,51.488105,-0.110121
555,"022160 - Chelsea Bridge, Pimlico",10,5,,51.485821,-0.149004
556,"022164 - Eaton Square (South), Belgravia",21,10,,51.49456127,-0.15393398
557,"022159 - Ebury Bridge, Pimlico",28,1,,51.490491,-0.149186
558,"022161 - Vincent Street, Pimlico",4,13,,51.493072,-0.129925
559,"022182 - South Parade, Chelsea",10,8,,51.48902,-0.17524
560,"022183 - Crinan Street, King's Cross",11,9,,51.534474,-0.122203
561,"022169 - Wren Street, Holborn",33,0,,51.524564,-0.116279
562,"022170 - Kennington Station, Kennington",0,23,,51.488852,-0.105593
563,"200003 - Cheshire Street, Bethnal Green",21,7,,51.52388,-0.065076
564,"022165 - Fisherman's Walk West, Canary Wharf",4,32,,51.50623,-0.02296
565,"200002 - Jubilee Street, Stepney",12,16,,51.515975,-0.053177
566,"200118 - Parkway, Camden Town",23,10,,51.538071,-0.144664
567,"200123 - Burdett Road, Mile End",19,14,,51.516196,-0.029138
568,"200105 - Bonny Street, Camden Town",40,5,,51.541603,-0.138853
569,"200093 - Thurtle Road, Haggerston",9,13,,51.534776,-0.071881
570,"200082 - St. Mary & St. Michael Church, Stepney",19,6,,51.51417,-0.052099
571,"200006 - Hewison Street, Old Ford",15,4,,51.533283,-0.028155
572,"022167 - Millharbour, Millwall",6,13,,51.496137,-0.019355
573,"200004 - Lightermans Road, Millwall",6,25,,51.499041,-0.020157
574,"200115 - Flamborough Street, Limehouse",20,5,,51.5128711,-0.0389866
575,"022166 - Albert Gardens, Stepney",23,10,,51.51328,-0.047784
576,"022172 - Bromley High Street, Bow",22,2,,51.528828,-0.013258
577,"022173 - Old Ford Road, Bethnal Green",16,8,,51.531127,-0.048017
578,"022174 - Granby Street, Shoreditch",28,9,,51.525645,-0.069543
579,"022175 - Canton Street, Poplar",22,1,,51.511811,-0.025626
580,"022176 - Reardon Street, Wapping",17,5,,51.506946,-0.058681
581,"200090 - Pennington Street, Wapping",4,41,,51.508622,-0.065006
582,"200073 - Cephas Street, Bethnal Green",21,3,,51.522561,-0.054883
583,"200131 - Clarkson Street, Bethnal Green",21,10,,51.528692,-0.059091
584,"200083 - Pritchard's Road, Bethnal Green",26,4,,51.532091,-0.06142
585,"200080 - Russell Gardens, Olympia",17,7,,51.500088,-0.211316
586,"200089 - Chrisp Street Market, Poplar",2,16,,51.5112,-0.014438
587,"200088 - Clarges Street, Mayfair",4,12,,51.507326,-0.145827
588,"200134 - Albany Street, The Regent's Park",20,7,,51.528302,-0.144466
589,"200070 - Arlington Road, Camden Town",23,1,,51.539957,-0.145246
590,"200127 - East India DLR, Blackwall",33,18,,51.509474,-0.002275
591,"200076 - Westminster Bridge Road, Elephant & Castle",13,13,,51.498386,-0.107913
592,"200132 - Gaywood  Street, Elephant & Castle",16,29,,51.49605,-0.104193
593,"200102 - Harford Street, Mile End",16,7,,51.521564,-0.039264
594,"200078 - Aberfeldy Street, Poplar",9,7,,51.513548,-0.005659
595,"200074 - Bury Place, Holborn",4,17,,51.51746,-0.12335
596,"200135 - Selby Street, Whitechapel",12,5,,51.521905,-0.063386
597,"200110 - Bishop's Bridge Road West, Bayswater",12,6,,51.51616,-0.18697
598,"200099 - Upper Bank Street, Canary Wharf",1,35,,51.503083,-0.017676
599,"200001 - Limerston Street, West Chelsea",17,1,,51.485587,-0.18119
600,"200109 - Alpha Grove, Millwall",4,19,,51.497304,-0.022793
601,"200084 - Doddington Grove, Kennington",19,17,,51.48692917,-0.102996299
602,"200005 - New Cavendish Street, Marylebone",13,5,,51.519167,-0.147983
603,"200086 - Ilchester Gardens, Bayswater",20,1,,51.51244,-0.19096
604,"200092 - Mudchute DLR, Cubitt Town",0,31,,51.490645,-0.014582
605,"200101 - Monument Street, Monument",10,12,,51.50964,-0.08497
606,"200108 - Bishop's Bridge Road East, Bayswater",18,2,,51.5171,-0.18377
607,"200133 - South Lambeth Road, Vauxhall",12,9,,51.481747,-0.124642
608,"200125 - Putney Bridge Station, Fulham",5,16,,51.468814,-0.210279
609,"200025 - London Fields, Hackney Central",13,8,,51.54119,-0.058826101
610,"200029 - Finlay Street, Fulham",11,13,,51.4768851,-0.215895601
611,"200007 - Holden Street, Battersea",12,8,,51.4687905,-0.158230901
612,"200062 - William Morris Way, Sands End",9,17,,51.46881971,-0.184318843
613,"200040 - Broomhouse Lane, Parsons Green",5,24,,51.46841875,-0.199135704
614,"200059 - Crisp Road, Hammersmith",8,38,,51.48810829,-0.22660621
615,"200119 - Dorothy Road, Clapham Junction",12,16,,51.46506424,-0.163750945
616,"200106 - Spanish Road, Clapham Junction",27,3,,51.45922541,-0.180884959
617,"200129 - Charlotte Terrace, Angel",21,4,,51.53639219,-0.112721065
618,"200057 - Belford House, Haggerston",36,3,,51.5366541,-0.07023031
619,"200077 - Vicarage Crescent, Battersea",28,2,,51.47287627,-0.176267008
620,"200094 - St. Bride Street, Holborn",13,12,,51.51505991,-0.10534448
621,"200122 - Hawley Crescent, Camden Town",10,12,,51.54100708,-0.14326094
622,"300094 - Plough Terrace, Clapham Junction",29,2,,51.46230566,-0.175407201
623,"200185 - St. John's Road, Clapham Junction",12,21,,51.46239255,-0.16829214
624,"300065 - Clapham Common North Side, Clapham Common",24,13,,51.46134382,-0.159322467
625,"200072 - Houndsditch, Aldgate",11,17,,51.514449,-0.077178979
626,"002679 - George Row, Bermondsey",21,1,,51.498585,-0.068981764
627,"300253 - Bermondsey Station, Bermondsey",20,10,,51.497995,-0.063471392
628,"001162 - Dorset Square, Marylebone",11,5,,51.5225965,-0.161113413
629,"000963 - Bankside Mix, Bankside",14,46,,51.50581776,-0.100186337
630,"001201 - Bank of England Museum, Bank",1,15,,51.51444134,-0.087587447
631,"001085 - Old Quebec Street, Marylebone",8,8,,51.51457763,-0.158264483
632,"200195 - St Martins Close, Camden Town",16,2,,51.538792,-0.138535
633,"200034 - Wapping Lane, Wapping",21,7,,51.504749,-0.057544
634,"200232 - Preston's Road, Cubitt Town",22,4,,51.499286,-0.009152
635,"001208 - Dickens Square, Borough",4,28,,51.49679128,-0.093913472
636,"022180 - Cheapside, Bank",7,36,,51.51397065,-0.09294031
637,"001096 - Bayswater Road, Hyde Park",9,18,,51.511933,-0.174411
638,"001217 - Serpentine Car Park, Hyde Park",12,6,,51.505014,-0.17306032
639,"001110 - Palace Gate, Kensington Gardens",12,1,,51.50204238,-0.184400221
640,"001075 - Hyde Park Corner, Hyde Park",34,2,,51.50311799,-0.153520935
641,"000981 - British Museum, Bloomsbury",26,9,,51.51908011,-0.124678402
642,"001220 - Imperial College, Knightsbridge",12,9,,51.49942855,-0.179702476
643,"001231 - Queen's Gate, Kensington Gardens",9,12,,51.5017154373867,-0.1798541843891
644,"001001 - West Cromwell Road, Earl's Court",21,3,,51.49372451,-0.198286569
645,"200166 - Southerton Road, Hammersmith",14,24,,51.494499,-0.228188
646,"001204 - Queen's Gate (North), Kensington",39,2,,51.50102668,-0.180246101
647,"001101 - Knightsbridge, Hyde Park",16,27,,51.50275704,-0.155349725
648,"300020 - West Kensington Station, West Kensington",6,16,,51.49087074,-0.206029743
649,"300048 - Stainsby Road , Poplar",17,7,,51.51542791,-0.02356501
650,"001137 - Harper Road, The Borough",16,25,,51.49859784,-0.096191134
651,"000996 - Borough High Street, The Borough",7,14,,51.50069491,-0.094524319
652,"001195 - St. George's Square, Pimlico",3,13,,51.488226,-0.135635511
653,"001098 - Lower Thames Street, Monument",11,13,,51.50930161,-0.084985356
654,"001031 - Nesham Street, Wapping",8,8,,51.507131,-0.06691
655,"001071 - Tower Gardens , Tower",12,12,,51.50950627,-0.075459482
656,"001213 - Curlew Street, Shad Thames",8,13,,51.50227992,-0.074189225
657,"002688 - Clifford Street, Mayfair",12,5,,51.51066202,-0.142345694
658,"001088 - Triangle Car Park, Hyde Park",19,8,,51.50645179,-0.170279555
659,"200216 - Clements Road, Bermondsey",9,14,,51.4954,-0.061698585
660,"300062 - South Bermondsey Station, Bermondsey",14,10,,51.488067,-0.057774596
661,"003465 - Eccleston Place, Victoria",7,12,,51.49395092,-0.147624377
662,"300004 - Harris Academy, Bermondsey",11,7,,51.492668,-0.072350665
663,"300059 - The Blue, Bermondsey",10,12,,51.492221,-0.06251309999998966
664,"003506 - Stanhope Gate, Mayfair",18,3,,51.50686435,-0.150666888
665,"001205 - Black Prince Road, Vauxhall",8,11,,51.4908679,-0.116911864
666,"003430 - Central House, Aldgate",2,16,,51.515231,-0.07015
667,"200205 - Montserrat Road , Putney",1,22,,51.46321128,-0.215550761
668,"001041 - Westbourne Grove, Bayswater",20,6,,51.51552971,-0.190240716
669,"300057 - Westbourne Park Road, Portobello",16,7,,51.51787005,-0.201005397
670,"200200 - Great Suffolk Street, The Borough",14,7,,51.50173215,-0.100292412
671,"200044 - New Fetter Lane, Holborn",8,13,,51.517428,-0.107987
672,"001008 - Hatton Wall, Holborn",13,13,,51.5216612,-0.109006325
673,"300095 - Michael Road, Walham Green",0,37,,51.47727637,-0.189210466
674,"001035 - Boston Place, Marylebone",16,10,,51.522511,-0.162298
675,"001060 - Torrens Street, Angel",15,4,,51.53219984,-0.105480698
676,"003497 - Rathbone Street, Fitzrovia",5,11,,51.51816295,-0.135025698
677,"200138 - Heron Quays DLR, Canary Wharf",23,4,,51.502661,-0.021596
678,"200030 - Driffield Road, Old Ford",17,2,,51.534137,-0.037366
679,"001183 - Bramham Gardens, Earl's Court",28,1,,51.49016361,-0.19039362
680,"003499 - Prince Consort Road, Knightsbridge",11,7,,51.49980661,-0.176415994
681,"001015 - New Globe Walk, Bankside",8,11,,51.5073853,-0.096440751
682,"300042 - Upper Richmond Road, Putney",22,3,,51.45971528,-0.212145939
683,"001089 - Queen's Gate (Central), South Kensington",29,2,,51.49396755,-0.17873226
684,"200066 - Import Dock, Canary Wharf",7,32,,51.505772,-0.016460175
685,"001027 - Warwick Avenue Station, Maida Vale",16,3,,51.52334476,-0.183846408
686,"300006 - Coomer Place, West Kensington",1,26,,51.4835707,-0.2020387000000028
687,"003455 - Arundel Street, Temple",1,17,,51.511726,-0.11385596
688,"000984 - Finsbury Circus, Liverpool Street",7,26,,51.51707521,-0.086685542
689,"001120 - Chepstow Villas, Notting Hill",19,7,,51.51213691,-0.201554966
690,"001176 - Waterloo Road, South Bank",6,9,,51.50486,-0.113001
691,"002648 - Waterloo Bridge, South Bank",3,12,,51.50535447,-0.113656543
692,"000959 - Milroy Walk, South Bank",0,30,,51.50724437,-0.106237501
693,"000962 - Stamford Street, South Bank",7,20,,51.50556905,-0.111606696
694,"001186 - Belvedere Road 1, South Bank",28,10,,51.50613324,-0.114686385
695,"002635 - Concert Hall Approach 1, South Bank",2,8,,51.505044,-0.115851
696,"001212 - Concert Hall Approach 2, South Bank",11,7,,51.504942,-0.115533
697,"001219 - Lower Marsh, Waterloo",4,13,,51.50013942,-0.113936001
698,"300246 - Belvedere Road 2, South Bank",36,2,,51.50621,-0.114842
699,"001021 - Bouverie Street, Temple",16,17,,51.51382102,-0.107927706
700,"001100 - Strand, Strand",10,25,,51.512582,-0.1150573
701,"022162 - Southwark Station 1, Southwark",6,31,,51.504043,-0.105312
702,"022163 - Southwark Station 2, Southwark",36,9,,51.504044,-0.104778
703,"300096 - Tallis Street, Temple",4,20,,51.511891,-0.107349
704,"300231 - Lambeth Palace Road, Waterloo",11,24,,51.5000891978,-0.116628700672
705,"001177 - Seville Street, Knightsbridge",5,22,,51.50185512,-0.159237081
706,"300061 - Crimscott Street, Bermondsey",8,11,,51.495598,-0.078893
707,"001179 - Chelsea Green, Chelsea",12,3,,51.49066456,-0.166485083
708,"001147 - Clifton Road, Maida Vale",20,2,,51.52557531,-0.179592915
709,"003505 - Marloes Road, Kensington",12,3,,51.496481,-0.192404
710,"200071 - Hoxton Street, Hoxton",22,5,,51.52959,-0.0801
711,"300021 - Podium, Queen Elizabeth Olympic Park",16,24,,51.538718,-0.011889482
712,"300203 - Euston Square Gardens, Euston",27,3,,51.527068,-0.13186102
713,"200189 - Phene Street, Chelsea",17,7,,51.48498496,-0.167919869
714,"200151 - Hoxton Station, Hoxton",20,2,,51.531091,-0.075901
715,"002665 - Lord's, St. John's Wood",18,6,,51.5291212008901,-0.171185284853
716,"200111 - Abbotsbury Road, Holland Park",14,10,,51.501391,-0.205991
717,"300014 - Falcon Road, Clapham Junction",1,27,,51.46663393,-0.169821175
718,"200008 - Portman Square, Marylebone",9,8,,51.516204,-0.155525
719,"001225 - George Street, Marylebone",24,3,,51.517703,-0.154106
720,"000973 - Bethnal Green Road, Shoreditch",30,8,,51.52364804,-0.074754872
721,"002677 - Natural History Museum, South Kensington",34,8,,51.49559291,-0.179077626
722,"001199 - The Tennis Courts, The Regent's Park",9,7,,51.52536703,-0.153463612
723,"001139 - Carey Street, Holborn",7,9,,51.51501025,-0.112753217
724,"200217 - Disraeli Road, Putney",16,17,,51.4616107,-0.2161458
725,"001193 - Kensington Gore, Knightsbridge",23,0,,51.50143293,-0.178656971
726,"200223 - Ashmole Estate, Oval",15,19,,51.48267821,-0.117661574
727,"001169 - Grosvenor Crescent, Belgravia",16,2,,51.50135267,-0.153194766
728,"001164 - Portland Place, Marylebone",34,0,,51.52071513,-0.14521173
729,"001207 - Tavistock Street, Covent Garden",0,33,,51.51196803,-0.120718759
730,"022158 - Exhibition Road Museums 1, South Kensington",9,4,,51.496468,-0.17379696
731,"200052 - Exhibition Road Museums 2, South Kensington",10,4,,51.495947,-0.17368958
732,"003453 - Chancery Lane, Holborn",7,8,,51.514274,-0.111257
733,"000999 - Queen Street 1, Bank",8,14,,51.51155322,-0.0929401
734,"001074 - Newgate Street , St. Paul's",15,19,,51.5154186,-0.098850915
735,"003469 - Cadogan Place, Knightsbridge",8,26,,51.49464523,-0.158105512
736,"003493 - South Audley Street, Mayfair",2,13,,51.50923,-0.15128999999998882
737,"001044 - The Guildhall, Guildhall",10,7,,51.51573534,-0.093080779
738,"300250 - Temple Gardens, Temple",15,9,,51.510981,-0.10832249
739,"001034 - Bruton Street, Mayfair",4,17,,51.51073687,-0.144165239
740,"001020 - Leonard Circus , Shoreditch",32,11,,51.52469624,-0.084439283
741,"200163 - Jubilee Plaza, Canary Wharf",35,28,,51.5034,-0.020242300000006708
742,"200128 - Queen Street 2, Bank",1,35,,51.511246,-0.093051
743,"001028 - William IV Street, Strand",1,25,,51.50946212,-0.124749274
744,"001122 - Ashley Place, Victoria",11,14,,51.49616092,-0.140947636
745,"003457 - Rochester Row, Westminster",5,8,,51.49582705,-0.13547809
746,"001196 - Vincent Square, Westminster",8,11,,51.49398524,-0.136928582
747,"001037 - Park Lane , Hyde Park",23,5,,51.5100172,-0.157275636
748,"001160 - Craven Street, Strand",0,23,,51.50810309,-0.12602103
749,"001097 - Northumberland Avenue, Strand",16,21,,51.506767,-0.123702
750,"003488 - Charles II Street, West End",7,17,,51.50844614,-0.131961389
751,"001067 - St. James's Square, St. James's",3,37,,51.50742485,-0.134621209
752,"200231 - Abingdon Green, Westminster",9,11,,51.49764,-0.12597218
753,"003429 - Abbey Orchard Street, Westminster",7,22,,51.49812559,-0.132102166
754,"001072 - Waterloo Station 3, Waterloo",1,34,,51.50379168,-0.11282408
755,"002692 - Waterloo Station 2, Waterloo",49,6,,51.50391973,-0.11342629
756,"002696 - Waterloo Station 1, Waterloo",31,5,,51.50402794,-0.11386436
757,"200206 - Chicheley Street, South Bank",22,2,,51.502698,-0.1167474
758,"001109 - Wellington Arch, Hyde Park",35,1,,51.50274025,-0.149569201
759,"001132 - Albert Gate, Hyde Park",22,12,,51.50295379,-0.158456089
760,"003480 - Smith Square, Westminster",8,10,,51.49580589,-0.127575233
761,"200178 - Buckingham Gate, Westminster",6,10,,51.49886563,-0.137424571
762,"002662 - Butler Place, Westminster",11,7,,51.49782999,-0.135440826
763,"300249 - Westminster Pier, Westminster",17,10,,51.501513,-0.12382322
764,"001032 - New Inn Yard, Shoreditch",5,15,,51.52452699,-0.079248081
765,"001202 - Wellington Street , Strand",1,23,,51.51175646,-0.119643424
766,"001228 - Southampton Street, Strand",2,12,,51.51070161,-0.121723604
767,"001077 - Royal London Hospital, Whitechapel",33,9,,51.518675,-0.06111
768,"002666 - Howick Place, Westminster",11,16,,51.49675303,-0.138733562
769,"200227 - Westfield Library Corner, Shepherd's Bush",3,24,,51.506093,-0.2242237
770,"300054 - Chesilton Road, Fulham",13,10,,51.47569809,-0.20587627
771,"022177 - Christian Street, Whitechapel",25,9,,51.513074,-0.064094
772,"002589 - Pembridge Villas, Notting Hill",11,5,,51.51108452,-0.197524944
773,"001143 - Kensington Church Street, Kensington",5,12,,51.50315739,-0.191496313
774,"200202 - Storey's Gate, Westminster",7,14,,51.50070305,-0.129698963
775,"300071 - Elgin Avenue, Maida Hill",16,2,,51.524309,-0.20123459999999227
776,"003436 - Derry Street, Kensington",3,15,,51.50136494,-0.191462381
777,"001012 - Christopher Street, Liverpool Street",7,25,,51.52128377,-0.084605692
778,"022178 - Lindfield Street, Poplar",38,6,,51.513757,-0.020467
779,"003456 - Portugal Street, Holborn",9,7,,51.51494305,-0.11614642
780,"001052 - Soho Square , Soho",18,39,,51.51563144,-0.132328837
781,"010621 - Upper Grosvenor Street, Mayfair",18,0,,51.51013066,-0.155757901
782,"003504 - Moor Street, Soho",4,12,,51.51352755,-0.130110822
783,"003451 - Golden Square, Soho",17,1,,51.5118973,-0.137043852
784,"002660 - Frith Street, Soho",8,10,,51.51310333,-0.13121385
785,"003489 - Broadwick Street, Soho",4,14,,51.5136846,-0.135580879
786,"001163 - Wardour Street, Soho",9,7,,51.51251523,-0.133201961
787,"300093 - Park Lane, Mayfair",13,5,,51.50542628,-0.150817316
788,"300247 - Cranmer Road, Stockwell",19,5,,51.479601,-0.11147178
789,"003442 - Abingdon Villas, Kensington",7,10,,51.4973875,-0.197245586
790,"200096 - Green Park Station, Mayfair",21,7,,51.506613,-0.142844
791,"200068 - Somerset House, Strand",3,38,,51.509943,-0.117619
792,"001151 - Whitehall Place, Strand",37,9,,51.50654321,-0.123179697
793,"001153 - Pall Mall East, West End",4,18,,51.50777049,-0.130699733
794,"001192 - Embankment (Savoy), Strand",2,39,,51.50963123,-0.119047563
795,"300214 - Blackfriars Road, Southwark",23,19,,51.505461,-0.10454093
796,"003458 - Waterloo Place, St. James's",3,17,,51.50663341,-0.131773845
797,"001148 - Queen Mother Sports Centre, Victoria",22,4,,51.49357351,-0.139956043
